City_ID,City,Lat,Lng,Max Temp,Humidity,Cloudiness,Wind Speed,Country,Date
0,kapaa,22.0752,-159.319,22.38,86,30,6.16,US,2023-04-05 09:00:00
1,bengkulu,-3.8004,102.2655,28.57,68,50,3.62,ID,2023-04-05 09:00:00
2,mataura,-46.1927,168.8643,13.12,77,52,4.75,NZ,2023-04-05 09:00:00
3,tuktoyaktuk,69.4541,-133.0374,-13.01,93,100,4.41,CA,2023-04-05 09:00:00
4,salinopolis,-0.6136,-47.3561,26.17,84,87,5.25,BR,2023-04-05 09:00:00
5,bara,10.3744,10.7288,35.21,8,100,1.21,NG,2023-04-05 09:00:00
6,dikson,73.5069,80.5464,-25.58,93,88,6.09,RU,2023-04-05 09:00:00
7,albany,42.6001,-73.9662,6.28,75,100,1.91,US,2023-04-05 09:00:00
8,mar del plata,-38.0023,-57.5575,14.86,77,31,3.26,AR,2023-04-05 09:00:00
9,komsomolskiy,40.4272,71.7189,18.82,59,48,6.88,UZ,2023-04-05 09:00:00
10,hermanus,-34.4187,19.2345,28.87,53,0,1.1,ZA,2023-04-05 09:00:00
11,dunedin,-45.8742,170.5036,16.94,58,72,1.45,NZ,2023-04-05 09:00:00
12,turayf,31.6725,38.6637,21.96,18,0,7.69,SA,2023-04-05 09:00:00
13,rikitea,-23.1203,-134.9692,25.96,79,50,2.56,PF,2023-04-05 09:00:00
14,jamestown,42.097,-79.2353,12.01,92,47,4.34,US,2023-04-05 09:00:00
15,busselton,-33.65,115.3333,20.39,64,59,8.26,AU,2023-04-05 09:00:00
16,qaanaaq,77.484,-69.3632,-25.32,61,0,2.8,GL,2023-04-05 09:00:00
17,arraial do cabo,-22.9661,-42.0278,19.08,96,0,1.59,BR,2023-04-05 09:00:00
18,punta arenas,-53.15,-70.9167,9.9,74,33,5.24,CL,2023-04-05 09:00:00
19,half moon bay,37.4636,-122.4286,7.97,80,72,5.48,US,2023-04-05 09:00:00
20,igrim,63.1906,64.4162,1.87,97,100,3.19,RU,2023-04-05 09:00:00
21,vardo,70.3705,31.1107,-0.93,79,83,3.69,NO,2023-04-05 09:00:00
22,khatanga,71.9667,102.5,-8.56,92,100,11.29,RU,2023-04-05 09:00:00
23,samarai,-10.6167,150.6667,28.9,76,62,4.14,PG,2023-04-05 09:00:00
24,rio grande,-32.035,-52.0986,18.81,77,100,3.18,BR,2023-04-05 09:00:00
25,mahebourg,-20.4081,57.7,28.48,74,73,1.64,MU,2023-04-05 09:00:00
26,port alfred,-33.5906,26.891,24.05,69,5,5.19,ZA,2023-04-05 09:00:00
27,bethel,41.3712,-73.414,11.49,71,100,3.46,US,2023-04-05 09:00:00
28,new norfolk,-42.7826,147.0587,13.25,67,17,1.3,AU,2023-04-05 09:00:00
29,la asuncion,11.0333,-63.8628,23.88,87,0,6.48,VE,2023-04-05 09:00:00
30,archidona,37.0965,-4.3887,13.78,59,3,1.83,ES,2023-04-05 09:00:00
31,bredasdorp,-34.5322,20.0403,23.07,70,4,3.5,ZA,2023-04-05 09:00:00
32,coahuayana,18.7333,-103.6833,20.98,89,97,1.5,MX,2023-04-05 09:00:00
33,comodoro rivadavia,-45.8667,-67.5,22.41,31,33,13.46,AR,2023-04-05 09:00:00
34,sao filipe,14.8961,-24.4956,22.99,79,92,3.27,CV,2023-04-05 09:00:00
35,castro,-24.7911,-50.0119,16.51,92,84,1.91,BR,2023-04-05 09:00:00
36,genhe,50.7833,121.5167,5.14,35,61,3.19,CN,2023-04-05 09:00:00
37,saint-augustin,51.226,-58.6502,-5.4,78,100,9.04,CA,2023-04-05 09:00:00
38,gannan,47.9147,123.5031,12.2,16,24,2.39,CN,2023-04-05 09:00:00
39,delta del tigre,-34.7633,-56.3853,17.92,88,20,4.12,UY,2023-04-05 09:00:00
40,kloulklubed,7.0419,134.2556,28.94,74,81,7.05,PW,2023-04-05 09:00:00
41,hobart,-42.8794,147.3294,13.47,71,24,2.09,AU,2023-04-05 09:00:00
42,tasiilaq,65.6145,-37.6368,-4.93,97,100,1.17,GL,2023-04-05 09:00:00
43,thompson,55.7435,-97.8558,-17.56,70,27,1.07,CA,2023-04-05 09:00:00
44,salalah,17.0151,54.0924,30.75,30,24,4.3,OM,2023-04-05 09:00:00
45,atuona,-9.8,-139.0333,27.57,72,16,5.44,PF,2023-04-05 09:00:00
46,severo-kurilsk,50.6789,156.125,0.11,88,85,5.71,RU,2023-04-05 09:00:00
47,puerto ayora,-0.7393,-90.3518,25.71,89,91,2.13,EC,2023-04-05 09:00:00
48,ushuaia,-54.8,-68.3,11.14,59,47,4.65,AR,2023-04-05 09:00:00
49,nha trang,12.25,109.1833,32.42,44,44,3.2,VN,2023-04-05 09:00:00
50,east london,-33.0153,27.9116,23.66,70,0,4.93,ZA,2023-04-05 09:00:00
51,pangnirtung,66.1451,-65.7125,-17.16,49,72,3.39,CA,2023-04-05 09:00:00
52,peniche,39.3558,-9.3811,15.67,53,17,3.25,PT,2023-04-05 09:00:00
53,vaini,-21.2,-175.2,25.91,76,83,6.3,TO,2023-04-05 09:00:00
54,bairiki,1.3292,172.9752,28.45,81,48,6.45,KI,2023-04-05 09:00:00
55,afua,-0.1567,-50.3867,23.42,94,92,2.33,BR,2023-04-05 09:00:00
56,imeni poliny osipenko,52.4201,136.4853,4.24,44,73,0.98,RU,2023-04-05 09:00:00
57,narsaq,60.9167,-46.05,-0.91,90,100,1.2,GL,2023-04-05 09:00:00
58,dwarka,22.2394,68.9678,27.18,57,7,5.11,IN,2023-04-05 09:00:00
59,montepulciano,43.1017,11.7868,6.03,66,58,7.42,IT,2023-04-05 09:00:00
60,kingaroy,-26.5333,151.8333,24.78,29,0,1.99,AU,2023-04-05 09:00:00
61,cape town,-33.9258,18.4232,22.76,71,0,1.22,ZA,2023-04-05 09:00:00
62,barrow,71.2906,-156.7887,-19.66,84,100,5.83,US,2023-04-05 09:00:00
63,tarakan,3.3,117.6333,29.25,72,51,4.71,ID,2023-04-05 09:00:00
64,paraiso,9.8383,-83.8656,17.72,98,73,2.32,CR,2023-04-05 09:00:00
65,muros,42.7762,-9.0603,13.68,73,77,1.26,ES,2023-04-05 09:00:00
66,torbay,47.6666,-52.7314,0.55,91,83,8.51,CA,2023-04-05 09:00:00
67,klyuchi,52.2667,79.1667,12.7,33,19,2.79,RU,2023-04-05 09:00:00
68,tuatapere,-46.1333,167.6833,11.99,84,68,6.58,NZ,2023-04-05 09:00:00
69,hasaki,35.7333,140.8333,19.83,52,95,7.12,JP,2023-04-05 09:00:00
70,kyotera,-0.6156,31.5175,17.38,97,100,1.86,UG,2023-04-05 09:00:00
71,bluff,-46.6,168.3333,13.54,77,73,14.45,NZ,2023-04-05 09:00:00
72,vostok,46.4856,135.8833,6.42,40,66,0.82,RU,2023-04-05 09:00:00
73,nanortalik,60.1432,-45.2371,-0.71,98,100,1.79,GL,2023-04-05 09:00:00
74,avarua,-21.2078,-159.775,25.83,73,73,5.71,CK,2023-04-05 09:00:00
75,saint-francois,46.4154,3.9054,5.42,81,2,1.51,FR,2023-04-05 09:00:00
76,otjiwarongo,-20.4637,16.6477,28.33,42,58,6.03,NA,2023-04-05 09:00:00
77,georgetown,5.4112,100.3354,29.97,70,47,3.43,MY,2023-04-05 09:00:00
78,saldanha,-33.0117,17.9442,17.58,84,1,4.37,ZA,2023-04-05 09:00:00
79,cidreira,-30.1811,-50.2056,18.77,95,91,0.67,BR,2023-04-05 09:00:00
80,okha,53.5739,142.9478,0.29,66,6,3.4,RU,2023-04-05 09:00:00
81,nhulunbuy,-12.2333,136.7667,28.58,80,80,4.31,AU,2023-04-05 09:00:00
82,chau doc,10.7,105.1167,35.58,39,94,5.03,VN,2023-04-05 09:00:00
83,nemuro,43.3236,145.575,4.75,79,96,4.33,JP,2023-04-05 09:00:00
84,mogadishu,2.0371,45.3438,34.74,62,45,8.12,SO,2023-04-05 09:00:00
85,hervey bay,-25.2986,152.8535,26.69,65,2,2.22,AU,2023-04-05 09:00:00
86,pisco,-13.7,-76.2167,23.58,86,89,1.57,PE,2023-04-05 09:00:00
87,sinazongwe,-17.2614,27.4618,29.1,63,71,4.43,ZM,2023-04-05 09:00:00
88,hami,42.8,93.45,9.03,19,0,1.86,CN,2023-04-05 09:00:00
89,margate,51.3813,1.3862,7.15,71,66,3.35,GB,2023-04-05 09:00:00
90,tezu,27.9167,96.1667,23.37,69,93,0.98,IN,2023-04-05 09:00:00
91,mayo,38.8876,-76.5119,15.41,91,31,2.1,US,2023-04-05 09:00:00
92,atasu,48.6814,71.6433,15.0,26,51,6.03,KZ,2023-04-05 09:00:00
93,ostrovnoy,68.0531,39.5131,-0.68,82,99,5.16,RU,2023-04-05 09:00:00
94,ancud,-41.8697,-73.8203,13.3,89,100,7.22,CL,2023-04-05 09:00:00
95,qeshm,26.9581,56.2719,25.52,61,0,2.58,IR,2023-04-05 09:00:00
96,saint george,37.1041,-113.5841,1.68,59,0,1.97,US,2023-04-05 09:00:00
97,bathsheba,13.2167,-59.5167,26.11,74,29,7.33,BB,2023-04-05 09:00:00
98,talnakh,69.4865,88.3972,-9.55,86,100,7.12,RU,2023-04-05 09:00:00
99,inuvik,68.3499,-133.7218,-13.9,89,83,3.12,CA,2023-04-05 09:00:00
100,sola,-13.8833,167.55,28.04,74,68,3.28,VU,2023-04-05 09:00:00
101,anupgarh,29.1911,73.2086,32.17,26,0,1.22,IN,2023-04-05 09:00:00
102,east brainerd,34.9959,-85.1502,20.38,90,83,3.64,US,2023-04-05 09:00:00
103,stuttgart,48.7823,9.177,5.06,72,21,1.31,DE,2023-04-05 09:00:00
104,marzuq,14.4,46.4667,27.94,39,60,2.48,YE,2023-04-05 09:00:00
105,dunhua,43.3725,128.2425,9.27,43,100,3.72,CN,2023-04-05 09:00:00
106,kodiak,57.79,-152.4072,2.27,94,100,2.63,US,2023-04-05 09:00:00
107,upernavik,72.7868,-56.1549,-31.98,99,43,2.98,GL,2023-04-05 09:00:00
108,ponta do sol,32.6667,-17.1,17.39,63,43,6.47,PT,2023-04-05 09:00:00
109,hithadhoo,-0.6,73.0833,28.13,70,7,2.07,MV,2023-04-05 09:00:00
110,fort nelson,58.8053,-122.7002,-2.43,60,83,1.05,CA,2023-04-05 09:00:00
111,mapiri,-15.25,-68.1667,19.35,100,97,0.09,BO,2023-04-05 09:00:00
112,mareeba,-17.0,145.4333,27.96,78,100,1.83,AU,2023-04-05 09:00:00
113,longyearbyen,78.2186,15.6401,-11.53,69,33,3.54,SJ,2023-04-05 09:00:00
114,babol,36.5513,52.679,16.47,74,8,7.0,IR,2023-04-05 09:00:00
115,wasilla,61.5814,-149.4394,0.46,83,100,1.19,US,2023-04-05 09:00:00
116,paciran,-6.8767,112.3761,28.77,70,85,2.86,ID,2023-04-05 09:00:00
117,altamira,-3.2033,-52.2064,22.04,99,91,0.85,BR,2023-04-05 09:00:00
118,morbegno,46.1383,9.57,9.82,41,54,1.62,IT,2023-04-05 09:00:00
119,yellowknife,62.456,-114.3525,-15.18,81,9,3.8,CA,2023-04-05 09:00:00
120,aklavik,68.2191,-135.0107,-13.9,94,100,3.4,CA,2023-04-05 09:00:00
121,lewistown,40.5992,-77.5714,13.66,94,60,1.28,US,2023-04-05 09:00:00
122,asau,46.4333,26.4,2.98,90,100,2.78,RO,2023-04-05 09:00:00
123,carnarvon,-24.8667,113.6333,23.88,62,0,8.28,AU,2023-04-05 09:00:00
124,lashio,22.9333,97.75,33.95,16,3,3.4,MM,2023-04-05 09:00:00
125,kaitangata,-46.2817,169.8464,15.98,60,32,3.9,NZ,2023-04-05 09:00:00
126,adrar,20.5022,-10.0711,20.24,36,83,7.54,MR,2023-04-05 09:00:00
127,bonthe,7.5264,-12.505,28.18,83,23,3.26,SL,2023-04-05 09:00:00
128,bunia,1.5667,30.25,23.22,89,100,3.78,CD,2023-04-05 09:00:00
129,maridi,4.9158,29.4742,35.91,36,100,3.61,SS,2023-04-05 09:00:00
130,port hardy,50.6996,-127.4199,4.9,67,83,2.86,CA,2023-04-05 09:00:00
131,santa rosa,14.3122,121.1114,31.1,60,84,6.2,PH,2023-04-05 09:00:00
132,nikolskoye,59.7035,30.7861,2.48,100,100,2.99,RU,2023-04-05 09:00:00
133,broome,42.2506,-75.833,7.3,83,27,2.2,US,2023-04-05 09:00:00
134,keskin,39.6731,33.6136,10.31,66,90,5.34,TR,2023-04-05 09:00:00
135,gejiu,23.306,103.1635,24.56,19,1,6.65,CN,2023-04-05 09:00:00
136,saint-paul,-21.0096,55.2707,28.45,83,14,3.05,RE,2023-04-05 09:00:00
137,hilo,19.7297,-155.09,21.58,91,83,2.04,US,2023-04-05 09:00:00
138,airai,-8.9266,125.4092,19.4,83,87,0.36,TL,2023-04-05 09:00:00
139,paso de carrasco,-34.8603,-56.0522,17.6,85,50,3.37,UY,2023-04-05 09:00:00
140,denizli,37.8402,29.0698,16.08,64,55,3.29,TR,2023-04-05 09:00:00
141,lebu,-37.6167,-73.65,12.15,84,100,1.92,CL,2023-04-05 09:00:00
142,male,4.1748,73.5089,30.6,67,13,0.77,MV,2023-04-05 09:00:00
143,flin flon,54.7682,-101.865,-17.33,100,74,1.12,CA,2023-04-05 09:00:00
144,iqaluit,63.7506,-68.5145,-20.38,82,60,5.33,CA,2023-04-05 09:00:00
145,grindavik,63.8424,-22.4338,5.88,94,100,5.19,IS,2023-04-05 09:00:00
146,chardara,41.2547,67.9692,13.2,50,100,3.61,KZ,2023-04-05 09:00:00
147,saint-philippe,-21.3585,55.7679,27.61,78,35,2.67,RE,2023-04-05 09:00:00
148,clyde river,70.4692,-68.5914,-24.83,83,1,2.4,CA,2023-04-05 09:00:00
149,yulara,-25.2406,130.9889,31.43,36,59,4.46,AU,2023-04-05 09:00:00
150,oyama,36.3,139.8,20.07,30,99,4.59,JP,2023-04-05 09:00:00
151,codrington,-38.2667,141.9667,16.01,74,49,5.01,AU,2023-04-05 09:00:00
152,okhotsk,59.3833,143.3,-4.71,87,96,1.91,RU,2023-04-05 09:00:00
153,nuuk,64.1835,-51.7216,-3.29,72,18,7.38,GL,2023-04-05 09:00:00
154,saskylakh,71.9167,114.0833,-23.24,89,11,4.2,RU,2023-04-05 09:00:00
155,gat,31.61,34.7642,20.3,82,0,5.32,IL,2023-04-05 09:00:00
156,provideniya,64.3833,-173.3,-20.32,99,49,2.11,RU,2023-04-05 09:00:00
157,pevek,69.7008,170.3133,-21.41,86,41,1.61,RU,2023-04-05 09:00:00
158,shingu,33.7333,135.9833,16.86,66,100,2.42,JP,2023-04-05 09:00:00
159,alta floresta,-9.8756,-56.0861,20.32,98,99,0.5,BR,2023-04-05 09:00:00
160,beringovskiy,63.05,179.3167,-13.16,96,64,0.87,RU,2023-04-05 09:00:00
161,butaritari,3.0707,172.7902,27.52,83,56,8.11,KI,2023-04-05 09:00:00
162,sao gabriel da cachoeira,-0.1303,-67.0892,22.91,98,100,0.7,BR,2023-04-05 09:00:00
163,sakaiminato,35.55,133.2333,14.71,87,100,8.83,JP,2023-04-05 09:00:00
164,riyadh,24.6877,46.7219,27.97,13,80,1.96,SA,2023-04-05 09:00:00
165,polyarnyy,69.1989,33.4478,-1.44,87,100,1.77,RU,2023-04-05 09:00:00
166,ponce,18.073,-66.6185,20.4,87,10,1.42,PR,2023-04-05 09:00:00
167,benjamin aceval,-24.9667,-57.5667,21.0,97,99,0.85,PY,2023-04-05 09:00:00
168,honiara,-9.4333,159.95,28.69,72,81,1.78,SB,2023-04-05 09:00:00
169,krasnoyarskiy,51.965,59.8967,13.96,46,80,4.3,RU,2023-04-05 09:00:00
170,abu dhabi,24.4667,54.3667,24.23,58,14,4.91,AE,2023-04-05 09:00:00
171,deception bay,-27.2,153.0333,25.96,63,3,2.44,AU,2023-04-05 09:00:00
172,santander,43.4647,-3.8044,8.84,77,11,2.26,ES,2023-04-05 09:00:00
173,sorong,-0.8833,131.25,26.93,84,99,14.5,ID,2023-04-05 09:00:00
174,kokstad,-30.5472,29.4241,22.08,61,1,0.94,ZA,2023-04-05 09:00:00
175,nishihara,26.1842,127.7558,22.72,68,62,6.17,JP,2023-04-05 09:00:00
176,esperance,-33.8667,121.9,19.74,63,25,12.1,AU,2023-04-05 09:00:00
177,pucallpa,-8.3791,-74.5539,21.64,99,87,0.35,PE,2023-04-05 09:00:00
178,hassleholm,56.1591,13.7664,5.13,71,82,1.58,SE,2023-04-05 09:00:00
179,juruti,-2.1522,-56.0922,22.82,92,66,1.32,BR,2023-04-05 09:00:00
180,canillo,42.5833,1.6667,3.08,37,1,2.76,AD,2023-04-05 09:00:00
181,high level,58.5169,-117.136,-5.71,90,32,2.29,CA,2023-04-05 09:00:00
182,oda,35.1833,132.5,14.41,84,100,8.73,JP,2023-04-05 09:00:00
183,turukhansk,65.8167,87.9833,-4.91,73,74,9.2,RU,2023-04-05 09:00:00
184,kavieng,-2.5744,150.7967,28.57,72,87,2.04,PG,2023-04-05 09:00:00
185,avera,33.194,-82.5271,17.93,95,56,2.26,US,2023-04-05 09:00:00
186,pundaguitan,6.3711,126.1689,27.65,72,61,3.71,PH,2023-04-05 09:00:00
187,sistranda,63.7256,8.834,3.2,81,96,4.24,NO,2023-04-05 09:00:00
188,port lincoln,-34.7333,135.8667,22.05,56,91,7.71,AU,2023-04-05 09:00:00
189,lebedinyy,58.5167,125.5167,-9.93,79,93,7.26,RU,2023-04-05 09:00:00
190,kruisfontein,-34.0033,24.7314,26.98,59,6,2.7,ZA,2023-04-05 09:00:00
191,kasongo-lunda,-6.4667,16.8167,27.81,87,92,1.26,CD,2023-04-05 09:00:00
192,mehriz,31.5917,54.4318,20.6,18,0,1.78,IR,2023-04-05 09:00:00
193,san patricio,28.017,-97.5169,24.11,91,100,7.22,US,2023-04-05 09:00:00
194,havelock,34.8791,-76.9013,17.86,88,15,1.89,US,2023-04-05 09:00:00
195,tual,-5.6667,132.75,28.57,71,80,3.11,ID,2023-04-05 09:00:00
196,cherskiy,68.75,161.3,-11.56,78,80,2.79,RU,2023-04-05 09:00:00
197,batemans bay,-35.7167,150.1833,20.98,64,24,0.41,AU,2023-04-05 09:00:00
198,victoria,22.2855,114.1577,25.7,90,62,4.41,HK,2023-04-05 09:00:00
199,obo,5.3998,26.4869,36.91,28,100,2.51,CF,2023-04-05 09:00:00
200,canutama,-6.5339,-64.3831,21.47,99,92,0.9,BR,2023-04-05 09:00:00
201,lavrentiya,65.5833,-171.0,-23.68,98,83,2.04,RU,2023-04-05 09:00:00
202,qasigiannguit,68.8193,-51.1922,-28.23,100,78,2.15,GL,2023-04-05 09:00:00
203,parasia,22.2,78.7667,31.47,22,50,4.54,IN,2023-04-05 09:00:00
204,tiszadob,48.0167,21.1667,4.64,52,97,8.48,HU,2023-04-05 09:00:00
205,taltal,-25.4,-70.4833,19.65,83,40,0.48,CL,2023-04-05 09:00:00
206,lorengau,-2.0226,147.2712,27.78,75,98,2.35,PG,2023-04-05 09:00:00
207,chuy,-33.6971,-53.4616,17.18,75,90,3.23,UY,2023-04-05 09:00:00
208,gweru,-19.45,29.8167,23.07,68,46,5.16,ZW,2023-04-05 09:00:00
209,vao,-22.6667,167.4833,24.67,78,99,3.61,NC,2023-04-05 09:00:00
210,sangod,24.9167,76.2833,33.48,15,0,1.0,IN,2023-04-05 09:00:00
211,cerrito,6.8432,-72.694,11.87,87,100,2.19,CO,2023-04-05 09:00:00
212,grande prairie,55.1667,-118.8027,-3.22,87,32,1.7,CA,2023-04-05 09:00:00
213,ahipara,-35.1667,173.1667,15.69,72,89,1.65,NZ,2023-04-05 09:00:00
214,malakal,9.5334,31.6605,39.21,11,67,3.64,SS,2023-04-05 09:00:00
215,chertkovo,49.3847,40.1547,15.84,62,95,6.31,RU,2023-04-05 09:00:00
216,srivardhan,18.0333,73.0167,30.56,51,1,6.74,IN,2023-04-05 09:00:00
217,youkounkoun,12.5333,-13.1333,28.37,43,12,3.28,GN,2023-04-05 09:00:00
218,vilhena,-12.7406,-60.1458,19.82,99,100,1.09,BR,2023-04-05 09:00:00
219,mayumba,-3.432,10.6554,26.33,85,95,0.05,GA,2023-04-05 09:00:00
220,suraia,45.6833,27.4,3.76,79,100,10.75,RO,2023-04-05 09:00:00
221,westport,41.1415,-73.3579,11.51,83,95,3.25,US,2023-04-05 09:00:00
222,shumyachi,53.8583,32.4242,12.22,80,100,4.74,RU,2023-04-05 09:00:00
223,bambous virieux,-20.3428,57.7575,27.83,76,58,3.31,MU,2023-04-05 09:00:00
224,megalopoli,37.4011,22.1422,12.38,75,50,4.3,GR,2023-04-05 09:00:00
225,tiksi,71.6872,128.8694,-20.6,98,100,4.98,RU,2023-04-05 09:00:00
226,port elizabeth,-33.918,25.5701,27.29,66,0,3.39,ZA,2023-04-05 09:00:00
227,boa vista,2.8197,-60.6733,25.45,66,32,4.14,BR,2023-04-05 09:00:00
228,patan,27.6667,85.3333,26.22,30,14,3.05,NP,2023-04-05 09:00:00
229,faya,18.3851,42.4509,19.12,59,45,5.02,SA,2023-04-05 09:00:00
230,mana,5.6592,-53.7767,24.72,80,77,4.91,GF,2023-04-05 09:00:00
231,innisfail,-17.5333,146.0333,27.88,76,95,1.13,AU,2023-04-05 09:00:00
232,taseyevo,57.2169,94.8978,-0.91,60,58,2.87,RU,2023-04-05 09:00:00
233,namatanai,-3.6667,152.4333,28.45,74,89,1.4,PG,2023-04-05 09:00:00
234,ortigueira,-24.2083,-50.9494,17.03,96,61,1.02,BR,2023-04-05 09:00:00
235,tura,25.5198,90.2201,31.75,44,10,3.98,IN,2023-04-05 09:00:00
236,ilulissat,69.2167,-51.1,-30.34,97,16,1.63,GL,2023-04-05 09:00:00
237,scottsbluff,41.8666,-103.6672,-7.01,82,71,6.92,US,2023-04-05 09:00:00
238,kenai,60.5544,-151.2583,0.25,97,100,0.11,US,2023-04-05 09:00:00
239,skibbereen,51.55,-9.2667,11.05,98,100,5.29,IE,2023-04-05 09:00:00
240,moindou,-21.6924,165.677,26.97,80,73,1.37,NC,2023-04-05 09:00:00
241,gizo,-8.103,156.8419,29.29,71,96,2.35,SB,2023-04-05 09:00:00
242,alice springs,-23.7,133.8833,31.65,41,60,9.82,AU,2023-04-05 09:00:00
243,atlantic beach,30.3344,-81.3987,20.81,93,69,2.29,US,2023-04-05 09:00:00
244,brigham city,41.5102,-112.0155,-4.37,91,100,1.97,US,2023-04-05 09:00:00
245,sarahan,31.5167,77.8,14.67,25,0,3.36,IN,2023-04-05 09:00:00
246,arlit,18.7369,7.3853,34.07,6,45,5.1,NE,2023-04-05 09:00:00
247,finschhafen,-6.6024,147.8681,28.05,75,64,1.73,PG,2023-04-05 09:00:00
248,port hedland,-20.3167,118.5667,33.3,54,57,7.53,AU,2023-04-05 09:00:00
249,anadyr,64.75,177.4833,-15.66,85,82,2.34,RU,2023-04-05 09:00:00
250,naze,28.3667,129.4833,20.03,76,99,8.28,JP,2023-04-05 09:00:00
251,whitehorse,60.7161,-135.0538,-2.43,71,83,1.89,CA,2023-04-05 09:00:00
252,denpasar,-8.65,115.2167,29.0,80,57,1.13,ID,2023-04-05 09:00:00
253,liwale,-9.7667,37.9333,25.09,93,96,2.61,TZ,2023-04-05 09:00:00
254,texarkana,33.4251,-94.0477,23.87,81,83,7.46,US,2023-04-05 09:00:00
255,zabid,14.1951,43.3152,34.3,54,72,4.59,YE,2023-04-05 09:00:00
256,kajaani,64.2273,27.7285,0.79,72,30,0.69,FI,2023-04-05 09:00:00
257,karratha,-20.7377,116.8463,31.54,52,91,6.61,AU,2023-04-05 09:00:00
258,caravelas,-17.7125,-39.2481,23.46,89,89,1.36,BR,2023-04-05 09:00:00
259,san quintin,30.4833,-115.95,11.51,64,24,2.9,MX,2023-04-05 09:00:00
260,dawson creek,55.7666,-120.2362,-1.8,77,23,3.04,CA,2023-04-05 09:00:00
261,goderich,43.7501,-81.7165,8.17,75,100,12.9,CA,2023-04-05 09:00:00
262,mecca,21.4267,39.8261,31.97,33,48,2.5,SA,2023-04-05 09:00:00
263,rachitova,45.6,22.75,2.45,95,100,0.96,RO,2023-04-05 09:00:00
264,mont-de-marsan,44.0,-0.6667,11.73,76,54,0.63,FR,2023-04-05 09:00:00
265,olafsvik,64.8945,-23.7142,3.36,97,100,7.68,IS,2023-04-05 09:00:00
266,rawson,-43.3002,-65.1023,18.11,43,88,12.14,AR,2023-04-05 09:00:00
267,cabo san lucas,22.8909,-109.9124,19.48,73,0,3.27,MX,2023-04-05 09:00:00
268,bend,44.0582,-121.3153,-2.91,84,64,3.13,US,2023-04-05 09:00:00
269,ishigaki,24.3448,124.1572,25.86,66,54,7.48,JP,2023-04-05 09:00:00
270,santa isabel do rio negro,-0.4139,-65.0192,22.26,97,96,0.18,BR,2023-04-05 09:00:00
271,rio brilhante,-21.8019,-54.5464,20.34,89,38,1.5,BR,2023-04-05 09:00:00
272,mongoumba,3.6415,18.5936,35.45,65,100,1.09,CF,2023-04-05 09:00:00
273,yakima,46.4665,-120.6678,1.66,64,0,2.3,US,2023-04-05 09:00:00
274,mount isa,-20.7333,139.5,33.53,15,10,4.08,AU,2023-04-05 09:00:00
275,lagoa,39.05,-27.9833,14.62,83,97,3.8,PT,2023-04-05 09:00:00
276,deputatskiy,69.3,139.9,-13.43,93,100,0.81,RU,2023-04-05 09:00:00
277,north platte,41.1239,-100.7654,-4.12,74,59,8.5,US,2023-04-05 09:00:00
278,hobyo,5.3505,48.5268,30.57,65,28,6.71,SO,2023-04-05 09:00:00
279,mount gambier,-37.8333,140.7667,18.48,62,42,3.4,AU,2023-04-05 09:00:00
280,guadalupe y calvo,26.1,-106.9667,2.73,33,0,2.59,MX,2023-04-05 09:00:00
281,kavaratti,10.5669,72.642,27.72,72,14,3.77,IN,2023-04-05 09:00:00
282,menongue,-14.6585,17.691,24.97,73,100,4.66,AO,2023-04-05 09:00:00
283,lahij,13.1667,44.5833,29.44,62,70,5.05,YE,2023-04-05 09:00:00
284,tuy hoa,13.0833,109.3,31.12,64,66,6.65,VN,2023-04-05 09:00:00
285,sao joao da barra,-21.6403,-41.0511,19.91,96,2,1.37,BR,2023-04-05 09:00:00
286,coihaique,-45.5752,-72.0662,10.46,95,100,1.47,CL,2023-04-05 09:00:00
287,lata,40.1629,-8.3327,13.23,46,16,3.41,PT,2023-04-05 09:00:00
288,hunucma,21.0167,-89.8667,24.89,77,55,4.38,MX,2023-04-05 09:00:00
289,mackay,-21.15,149.2,28.49,72,4,2.32,AU,2023-04-05 09:00:00
290,neiafu,-18.65,-173.9833,27.09,85,58,8.32,TO,2023-04-05 09:00:00
291,shubarshi,48.5872,57.1869,17.23,34,4,5.51,KZ,2023-04-05 09:00:00
292,muyezerskiy,63.9333,31.65,0.26,88,68,1.06,RU,2023-04-05 09:00:00
293,sampit,-2.5333,112.95,31.5,59,100,2.0,ID,2023-04-05 09:00:00
294,beisfjord,68.3751,17.5988,3.58,81,100,1.57,NO,2023-04-05 09:00:00
295,quelimane,-17.8786,36.8883,28.61,72,31,2.85,MZ,2023-04-05 09:00:00
296,puerto ayacucho,5.6639,-67.6236,26.0,72,71,0.78,VE,2023-04-05 09:00:00
297,valenca do piaui,-6.4075,-41.7456,20.33,86,99,1.11,BR,2023-04-05 09:00:00
298,la ronge,55.1001,-105.2842,-7.94,55,43,1.11,CA,2023-04-05 09:00:00
299,seminole,28.7086,-81.2081,21.84,92,3,2.52,US,2023-04-05 09:00:00
300,fortuna,40.5982,-124.1573,4.93,89,96,2.16,US,2023-04-05 09:00:00
301,mikhaylovka,50.06,43.2379,16.22,60,100,2.65,RU,2023-04-05 09:00:00
302,puerto cabello,10.4731,-68.0125,24.81,85,75,4.43,VE,2023-04-05 09:00:00
303,chara,56.9064,118.2631,-4.88,42,96,1.02,RU,2023-04-05 09:00:00
304,morant bay,17.8815,-76.4093,24.67,98,12,1.56,JM,2023-04-05 09:00:00
305,biskupiec,53.8647,20.9569,2.72,67,53,2.12,PL,2023-04-05 09:00:00
306,tamasane,-22.4184,27.4013,22.66,74,96,6.52,BW,2023-04-05 09:00:00
307,mahibadhoo,3.7833,72.9667,27.71,70,35,0.62,MV,2023-04-05 09:00:00
308,dong xoai,11.5333,106.9167,34.21,44,98,3.65,VN,2023-04-05 09:00:00
309,uruacu,-14.5247,-49.1408,18.68,95,3,1.29,BR,2023-04-05 09:00:00
310,nueva guinea,11.6876,-84.4562,21.8,97,25,3.13,NI,2023-04-05 09:00:00
311,valle del guamuez,0.4525,-76.9192,21.02,86,100,0.69,CO,2023-04-05 09:00:00
312,barcelos,41.5388,-8.6151,15.49,41,50,1.26,PT,2023-04-05 09:00:00
313,vangaindrano,-23.35,47.6,28.25,82,28,2.58,MG,2023-04-05 09:00:00
314,antalaha,-14.9003,50.2788,29.13,74,66,4.36,MG,2023-04-05 09:00:00
315,vila velha,-20.3297,-40.2925,22.66,92,4,2.28,BR,2023-04-05 09:00:00
316,xuddur,4.1213,43.8894,32.33,45,36,6.75,SO,2023-04-05 09:00:00
317,fairbanks,64.8378,-147.7164,-2.27,93,83,1.08,US,2023-04-05 09:00:00
318,klaksvik,62.2266,-6.589,8.2,97,100,5.83,FO,2023-04-05 09:00:00
319,havoysund,70.9963,24.6622,1.64,95,100,3.29,NO,2023-04-05 09:00:00
320,clarence town,-32.5833,151.7833,20.4,75,7,0.74,AU,2023-04-05 09:00:00
321,parkent,41.2944,69.6764,11.02,83,100,3.48,UZ,2023-04-05 09:00:00
322,puri,19.8,85.85,32.79,68,6,7.89,IN,2023-04-05 09:00:00
323,yumen,40.2833,97.2,7.38,16,19,9.05,CN,2023-04-05 09:00:00
324,bandarban,22.1965,92.2262,35.1,35,1,4.07,BD,2023-04-05 09:00:00
325,vico equense,40.6598,14.4317,11.29,63,81,3.68,IT,2023-04-05 09:00:00
326,oktyabrskoye,43.0645,44.7417,19.69,51,60,3.15,RU,2023-04-05 09:00:00
327,oranjemund,-28.55,16.4333,28.56,37,0,1.97,NA,2023-04-05 09:00:00
328,san cristobal,7.7669,-72.225,19.53,73,91,0.66,VE,2023-04-05 09:00:00
329,mounana,-1.4085,13.1586,28.75,82,95,0.95,GA,2023-04-05 09:00:00
330,matara,5.9485,80.5353,30.84,60,12,4.65,LK,2023-04-05 09:00:00
331,dongying,37.4564,118.4856,10.36,56,100,3.8,CN,2023-04-05 09:00:00
332,vila franca do campo,37.7167,-25.4333,14.08,75,72,2.77,PT,2023-04-05 09:00:00
333,saint anthony,45.0205,-93.218,1.82,96,100,1.16,US,2023-04-05 09:00:00
334,havre,49.5833,0.3333,7.58,74,16,2.21,FR,2023-04-05 09:00:00
335,yeppoon,-23.1333,150.7333,29.41,69,18,4.06,AU,2023-04-05 09:00:00
336,pillaro,-1.1667,-78.5333,10.58,93,100,0.42,EC,2023-04-05 09:00:00
337,semey,50.4111,80.2275,13.52,25,2,4.5,KZ,2023-04-05 09:00:00
338,kamalia,30.7333,72.65,30.86,32,0,1.37,PK,2023-04-05 09:00:00
339,luganville,-15.5333,167.1667,27.97,78,89,1.41,VU,2023-04-05 09:00:00
340,geraldton,-28.7667,114.6,24.72,43,0,7.67,AU,2023-04-05 09:00:00
341,norman wells,65.282,-126.8329,-10.46,77,59,1.51,CA,2023-04-05 09:00:00
342,dicabisagan,17.0818,122.4157,27.56,59,24,2.26,PH,2023-04-05 09:00:00
343,machado,-21.6747,-45.9197,16.07,94,2,0.86,BR,2023-04-05 09:00:00
344,srednekolymsk,67.45,153.6833,-8.94,80,33,2.01,RU,2023-04-05 09:00:00
345,chokurdakh,70.6333,147.9167,-15.35,83,100,4.16,RU,2023-04-05 09:00:00
346,conde,-7.2597,-34.9075,24.82,93,46,3.05,BR,2023-04-05 09:00:00
347,galveston,29.3669,-94.9669,23.83,90,100,5.91,US,2023-04-05 09:00:00
348,saint-louis,16.3333,-15.0,29.48,11,93,5.87,SN,2023-04-05 09:00:00
349,kamaishi,39.2667,141.8833,15.76,56,99,2.99,JP,2023-04-05 09:00:00
350,kalabo,-14.97,22.6814,24.43,74,99,3.05,ZM,2023-04-05 09:00:00
351,koungheul,13.9833,-14.8,27.54,53,37,1.92,SN,2023-04-05 09:00:00
352,ambon,-3.6954,128.1814,26.84,82,47,4.27,ID,2023-04-05 09:00:00
353,walvis bay,-22.9575,14.5053,24.43,67,57,3.36,NA,2023-04-05 09:00:00
354,chicama,-7.8447,-79.1469,25.77,84,100,2.0,PE,2023-04-05 09:00:00
355,naberera,-4.2,36.9333,22.11,77,99,1.91,TZ,2023-04-05 09:00:00
356,maceio,-9.6658,-35.7353,25.24,93,83,0.66,BR,2023-04-05 09:00:00
357,plast,54.3691,60.8136,13.02,53,42,3.11,RU,2023-04-05 09:00:00
358,diffa,13.3154,12.6113,35.17,6,99,6.56,NE,2023-04-05 09:00:00
359,lucera,41.5082,15.3351,8.24,74,54,4.33,IT,2023-04-05 09:00:00
360,tessalit,20.1986,1.0114,30.41,7,79,4.78,ML,2023-04-05 09:00:00
361,roanoke rapids,36.4615,-77.6542,16.53,98,2,2.56,US,2023-04-05 09:00:00
362,souillac,-20.5167,57.5167,27.73,78,65,2.39,MU,2023-04-05 09:00:00
363,madaoua,14.073,5.96,34.4,7,17,5.0,NE,2023-04-05 09:00:00
364,itaituba,-4.2761,-55.9836,22.58,99,99,1.04,BR,2023-04-05 09:00:00
365,maneadero,31.7167,-116.5667,9.61,66,64,1.87,MX,2023-04-05 09:00:00
366,freeport,40.6576,-73.5832,12.02,90,100,5.43,US,2023-04-05 09:00:00
367,inongo,-1.95,18.2667,26.65,80,91,1.5,CD,2023-04-05 09:00:00
368,pontes e lacerda,-15.2261,-59.3353,20.77,97,67,0.7,BR,2023-04-05 09:00:00
369,rio gallegos,-51.6226,-69.2181,15.26,66,33,10.85,AR,2023-04-05 09:00:00
370,olinda,-8.0089,-34.8553,26.2,83,83,3.87,BR,2023-04-05 09:00:00
371,ryde,50.73,-1.1621,8.49,68,100,2.42,GB,2023-04-05 09:00:00
372,sorland,67.667,12.6934,4.09,85,33,5.9,NO,2023-04-05 09:00:00
373,haines junction,60.7522,-137.5108,-4.29,78,100,0.85,CA,2023-04-05 09:00:00
374,ust-barguzin,53.45,108.9833,0.11,66,100,5.83,RU,2023-04-05 09:00:00
375,isangel,-19.55,169.2667,28.13,82,100,0.99,VU,2023-04-05 09:00:00
376,mbinga,-10.9333,35.0167,21.04,92,83,2.33,TZ,2023-04-05 09:00:00
377,vanimo,-2.6741,141.3028,28.25,74,100,1.74,PG,2023-04-05 09:00:00
378,tshikapa,-6.4167,20.8,28.02,84,98,3.03,CD,2023-04-05 09:00:00
379,promyshlennyy,67.5833,63.9167,-7.24,92,95,5.22,RU,2023-04-05 09:00:00
380,guilin,25.2819,110.2864,19.5,70,73,4.25,CN,2023-04-05 09:00:00
381,nchelenge,-9.3451,28.734,23.79,83,82,0.75,ZM,2023-04-05 09:00:00
382,rock sound,24.9,-76.2,24.33,79,4,8.39,BS,2023-04-05 09:00:00
383,marienburg,54.0359,19.0266,3.61,55,78,2.51,PL,2023-04-05 09:00:00
384,lajeado,-29.4669,-51.9614,18.07,94,81,0.42,BR,2023-04-05 09:00:00
385,necochea,-38.5473,-58.7368,10.49,89,17,4.03,AR,2023-04-05 09:00:00
386,nioro,13.35,-15.75,26.53,65,20,3.31,GM,2023-04-05 09:00:00
387,tibu,8.639,-72.7358,22.53,97,92,0.37,CO,2023-04-05 09:00:00
388,jumla,29.2747,82.1838,16.3,27,8,4.03,NP,2023-04-05 09:00:00
389,svetlogorsk,52.6333,29.7333,1.05,98,100,4.04,BY,2023-04-05 09:00:00
390,miles city,46.4083,-105.8406,-5.75,75,100,4.97,US,2023-04-05 09:00:00
391,lakes entrance,-37.8811,147.981,18.34,81,22,1.84,AU,2023-04-05 09:00:00
392,elliot,-31.3333,27.85,20.36,45,0,2.23,ZA,2023-04-05 09:00:00
393,saint-georges,12.0564,-61.7485,25.72,75,32,7.12,GD,2023-04-05 09:00:00
394,husavik,66.0449,-17.3389,2.0,99,100,1.67,IS,2023-04-05 09:00:00
395,dhariwal,31.9542,75.3192,30.14,24,0,3.11,IN,2023-04-05 09:00:00
396,richland,40.7834,-82.5499,18.65,76,32,8.22,US,2023-04-05 09:00:00
397,zambezi,-13.5432,23.1047,19.43,94,100,2.73,ZM,2023-04-05 09:00:00
398,abengourou,6.7297,-3.4964,28.02,88,85,2.43,CI,2023-04-05 09:00:00
399,kongoussi,13.3258,-1.5347,33.97,11,18,3.74,BF,2023-04-05 09:00:00
400,rantepao,-2.9701,119.8978,24.49,83,99,0.61,ID,2023-04-05 09:00:00
401,xingcheng,40.6167,120.7167,12.33,29,62,6.32,CN,2023-04-05 09:00:00
402,birao,10.2849,22.7882,38.83,28,100,0.73,CF,2023-04-05 09:00:00
403,inhambane,-23.865,35.3833,26.97,72,17,5.54,MZ,2023-04-05 09:00:00
404,yakovlevka,44.425,133.4772,12.55,29,100,0.2,RU,2023-04-05 09:00:00
405,plettenberg bay,-34.0527,23.3716,23.11,64,10,2.5,ZA,2023-04-05 09:00:00
406,petropavlovsk-kamchatskiy,53.0452,158.6483,1.87,54,29,11.02,RU,2023-04-05 09:00:00
407,belaya gora,68.5333,146.4167,-10.99,85,100,1.19,RU,2023-04-05 09:00:00
408,dakar,14.6937,-17.4441,22.59,81,29,5.47,SN,2023-04-05 09:00:00
409,khilok,51.3674,110.4676,2.09,54,100,8.15,RU,2023-04-05 09:00:00
410,hofn,64.2539,-15.2082,6.4,93,98,2.67,IS,2023-04-05 09:00:00
411,lompoc,34.6391,-120.4579,6.92,77,86,3.64,US,2023-04-05 09:00:00
412,itarema,-2.9248,-39.9167,23.69,87,93,1.21,BR,2023-04-05 09:00:00
413,lubyany,56.0378,51.4,16.0,51,73,1.49,RU,2023-04-05 09:00:00
414,feldbach,46.9531,15.8883,4.78,62,84,1.35,AT,2023-04-05 09:00:00
415,lesnoy,57.6198,63.0784,13.59,54,95,3.68,RU,2023-04-05 09:00:00
416,kohlu,29.8962,69.252,23.88,30,1,6.55,PK,2023-04-05 09:00:00
417,msanga,-6.05,36.0333,27.53,71,86,2.3,TZ,2023-04-05 09:00:00
418,novovelichkovskaya,45.2778,38.8436,14.36,76,99,9.05,RU,2023-04-05 09:00:00
419,rockland,41.1668,-74.0496,12.34,83,90,2.61,US,2023-04-05 09:00:00
420,boffa,10.1667,-14.0333,27.9,75,27,1.0,GN,2023-04-05 09:00:00
421,bilma,18.6853,12.9164,32.87,11,37,5.8,NE,2023-04-05 09:00:00
422,mopti,14.6667,-4.0,33.15,7,7,5.2,ML,2023-04-05 09:00:00
423,tiznit,29.5833,-9.5,10.71,82,58,6.73,MA,2023-04-05 09:00:00
424,jacqueville,5.2052,-4.4146,27.58,83,76,3.21,CI,2023-04-05 09:00:00
425,george town,5.4112,100.3354,29.78,73,47,4.42,MY,2023-04-05 09:00:00
426,zhigansk,66.7697,123.3711,-19.8,92,100,7.98,RU,2023-04-05 09:00:00
427,mbaiki,3.8678,17.9892,34.94,60,99,0.48,CF,2023-04-05 09:00:00
428,rawlins,41.7911,-107.2387,-12.3,79,100,2.97,US,2023-04-05 09:00:00
429,severnyy,50.677,36.5532,12.76,82,96,6.21,RU,2023-04-05 09:00:00
430,stawell,-37.05,142.7667,22.13,33,16,2.06,AU,2023-04-05 09:00:00
431,bariadi,-2.8,33.9833,25.87,68,87,3.1,TZ,2023-04-05 09:00:00
432,luwingu,-10.2621,29.9271,23.03,87,89,3.12,ZM,2023-04-05 09:00:00
433,kungurtug,50.5994,97.5228,-0.62,56,99,3.66,RU,2023-04-05 09:00:00
434,murgab,37.4966,61.9714,17.76,44,20,2.15,TM,2023-04-05 09:00:00
435,visby,57.6409,18.296,0.9,86,83,5.86,SE,2023-04-05 09:00:00
436,araceli,10.5529,119.9913,27.48,74,84,5.21,PH,2023-04-05 09:00:00
437,hambantota,6.1241,81.1185,30.61,62,9,6.49,LK,2023-04-05 09:00:00
438,constitucion,-35.3333,-72.4167,11.65,71,93,2.12,CL,2023-04-05 09:00:00
439,makakilo city,21.3469,-158.0858,22.8,75,28,6.71,US,2023-04-05 09:00:00
440,hundorp,61.5552,9.9407,1.45,91,100,1.89,NO,2023-04-05 09:00:00
441,ust-nera,64.5667,143.2,-7.31,82,100,1.54,RU,2023-04-05 09:00:00
442,tiarei,-17.5333,-149.3333,27.87,75,72,3.87,PF,2023-04-05 09:00:00
443,kabarnet,0.4919,35.743,23.25,56,82,3.39,KE,2023-04-05 09:00:00
444,praia,14.9215,-23.5087,23.12,70,83,6.26,CV,2023-04-05 09:00:00
445,cap malheureux,-19.9842,57.6142,26.68,75,9,3.52,MU,2023-04-05 09:00:00
446,perigueux,45.1833,0.7167,9.49,71,3,2.31,FR,2023-04-05 09:00:00
447,luderitz,-26.6481,15.1594,30.12,40,0,1.42,NA,2023-04-05 09:00:00
448,san rafael,-34.6177,-68.3301,16.81,67,33,0.95,AR,2023-04-05 09:00:00
449,broken hill,-31.95,141.4333,26.56,20,85,1.25,AU,2023-04-05 09:00:00
450,guarapari,-20.6667,-40.4975,22.3,91,29,2.3,BR,2023-04-05 09:00:00
451,swift current,50.2834,-107.8014,-18.76,86,47,1.36,CA,2023-04-05 09:00:00
452,kaa-khem,51.6833,94.7333,4.39,37,42,1.02,RU,2023-04-05 09:00:00
453,namibe,-15.1961,12.1522,26.39,79,97,2.2,AO,2023-04-05 09:00:00
454,emerald,-23.5333,148.1667,31.82,32,37,1.23,AU,2023-04-05 09:00:00
455,bardiyah,31.7561,25.0865,18.61,54,0,4.16,LY,2023-04-05 09:00:00
456,yenagoa,4.9247,6.2642,30.36,80,100,3.05,NG,2023-04-05 09:00:00
457,ravar,31.2656,56.8055,22.6,16,0,3.13,IR,2023-04-05 09:00:00
458,aksarka,66.5606,67.7975,-2.61,89,99,5.35,RU,2023-04-05 09:00:00
459,puerto cabezas,14.0351,-83.3888,24.22,83,1,3.25,NI,2023-04-05 09:00:00
460,berlevag,70.8578,29.0864,0.0,81,100,5.27,NO,2023-04-05 09:00:00
461,pioner,55.3166,85.9508,4.03,40,14,1.08,RU,2023-04-05 09:00:00
462,wuda,39.4994,106.7117,4.88,49,98,10.83,CN,2023-04-05 09:00:00
463,antofagasta,-23.65,-70.4,20.36,89,49,1.18,CL,2023-04-05 09:00:00
464,hitiaa,-17.6,-149.3,27.89,75,77,4.04,PF,2023-04-05 09:00:00
465,faanui,-16.4833,-151.75,28.13,70,43,5.02,PF,2023-04-05 09:00:00
466,turan,16.0678,108.2208,31.13,69,7,4.89,VN,2023-04-05 09:00:00
467,balaipungut,1.05,101.2833,30.72,66,96,2.63,ID,2023-04-05 09:00:00
468,sur,22.5667,59.5289,26.77,52,1,4.31,OM,2023-04-05 09:00:00
469,koroni,36.8,21.95,15.12,65,7,4.64,GR,2023-04-05 09:00:00
470,nabire,-3.3667,135.4833,28.55,76,96,1.01,ID,2023-04-05 09:00:00
471,whitefish,48.4111,-114.3376,-4.85,76,14,0.91,US,2023-04-05 09:00:00
472,kusu,33.2831,131.1514,14.87,92,100,1.46,JP,2023-04-05 09:00:00
473,pimentel,-6.8367,-79.9342,26.84,77,33,1.2,PE,2023-04-05 09:00:00
474,ziro,27.6333,93.8333,11.51,86,89,1.5,IN,2023-04-05 09:00:00
475,chinna salem,11.65,78.9,36.88,39,23,3.43,IN,2023-04-05 09:00:00
476,berdigestyakh,62.0989,126.6992,-13.27,90,100,5.7,RU,2023-04-05 09:00:00
477,baruun-urt,46.6806,113.2792,4.76,16,100,4.95,MN,2023-04-05 09:00:00
478,christchurch,-43.5333,172.6333,18.17,56,91,7.15,NZ,2023-04-05 09:00:00
479,lushnje,40.9419,19.705,11.55,73,76,3.3,AL,2023-04-05 09:00:00
480,katsuura,35.1333,140.3,17.08,55,86,6.99,JP,2023-04-05 09:00:00
481,ferme-neuve,46.7001,-75.4493,-6.55,87,99,4.8,CA,2023-04-05 09:00:00
482,kieta,-6.2167,155.6333,28.25,76,97,0.57,PG,2023-04-05 09:00:00
483,jalu,29.0331,21.5482,22.07,34,0,2.86,LY,2023-04-05 09:00:00
484,juba,4.8517,31.5825,34.53,44,69,2.74,SS,2023-04-05 09:00:00
485,solnechnyy,50.7214,136.6319,5.0,48,29,0.74,RU,2023-04-05 09:00:00
486,yinchuan,38.4681,106.2731,6.94,35,99,6.59,CN,2023-04-05 09:00:00
487,severo-yeniseyskiy,60.3725,93.0408,-4.27,79,99,3.57,RU,2023-04-05 09:00:00
488,ribeira grande,38.5167,-28.7,15.09,80,46,1.95,PT,2023-04-05 09:00:00
489,gazanjyk,39.2446,55.5154,18.41,33,4,4.27,TM,2023-04-05 09:00:00
490,gisors,49.2818,1.7801,8.26,67,7,0.09,FR,2023-04-05 09:00:00
491,kapchorwa,1.3965,34.4509,23.3,59,85,1.97,UG,2023-04-05 09:00:00
492,kifri,34.6959,44.9661,26.03,33,3,0.99,IQ,2023-04-05 09:00:00
493,los llanos de aridane,28.6585,-17.9182,16.13,82,32,7.82,ES,2023-04-05 09:00:00
494,kokkola,63.8385,23.1307,-0.72,88,9,1.84,FI,2023-04-05 09:00:00
495,springbok,-29.6643,17.8865,28.39,21,0,6.37,ZA,2023-04-05 09:00:00
496,chinhoyi,-17.3667,30.2,27.55,55,83,2.3,ZW,2023-04-05 09:00:00
497,mpika,-11.8343,31.4529,20.61,91,92,4.09,ZM,2023-04-05 09:00:00
498,ucluelet,48.9329,-125.5528,5.14,83,99,3.44,CA,2023-04-05 09:00:00
499,elizabeth city,36.2946,-76.2511,16.38,94,36,2.19,US,2023-04-05 09:00:00
500,nantong,32.0303,120.8747,12.75,73,96,5.61,CN,2023-04-05 09:00:00
501,cayenne,4.9333,-52.3333,24.76,86,83,4.49,GF,2023-04-05 09:00:00
502,hearst,49.6835,-83.6665,-8.33,92,100,4.83,CA,2023-04-05 09:00:00
503,champerico,14.3,-91.9167,27.57,77,17,3.89,GT,2023-04-05 09:00:00
504,atar,20.5169,-13.0499,21.88,39,100,6.41,MR,2023-04-05 09:00:00
505,leningradskiy,69.3833,178.4167,-24.1,94,8,2.91,RU,2023-04-05 09:00:00
506,rumoi,43.9344,141.6428,10.29,66,100,1.91,JP,2023-04-05 09:00:00
507,matamoros,25.5333,-103.25,22.82,15,100,2.87,MX,2023-04-05 09:00:00
508,wagga wagga,-35.1167,147.3667,23.9,35,0,0.44,AU,2023-04-05 09:00:00
509,thunder bay,48.4001,-89.3168,-3.84,94,100,10.16,CA,2023-04-05 09:00:00
510,seddon,-37.8068,144.8916,17.88,69,64,3.17,AU,2023-04-05 09:00:00
511,staryy saltiv,50.0827,36.7939,14.6,67,97,6.96,UA,2023-04-05 09:00:00
512,piacabucu,-10.4056,-36.4344,24.65,86,100,1.66,BR,2023-04-05 09:00:00
513,loughrea,53.1969,-8.5669,10.68,97,100,3.43,IE,2023-04-05 09:00:00
514,dubrovytsya,51.5744,26.565,4.32,49,95,4.46,UA,2023-04-05 09:00:00
515,khromtau,50.2503,58.4347,14.54,30,54,3.12,KZ,2023-04-05 09:00:00
516,kalemie,-5.9475,29.1947,25.89,80,92,3.28,CD,2023-04-05 09:00:00
517,le port,-20.9373,55.2919,28.42,83,13,2.48,RE,2023-04-05 09:00:00
518,kozmodemyansk,56.3367,46.5711,15.3,55,33,2.06,RU,2023-04-05 09:00:00
519,verkhnyaya inta,65.9811,60.3094,-0.47,95,100,5.57,RU,2023-04-05 09:00:00
520,yerbogachen,61.2767,108.0108,-10.22,72,61,3.68,RU,2023-04-05 09:00:00
521,calabozo,8.9242,-67.4293,26.39,60,16,4.46,VE,2023-04-05 09:00:00
522,noumea,-22.2763,166.4572,26.04,94,83,3.25,NC,2023-04-05 09:00:00
523,nome,64.5011,-165.4064,-20.03,77,4,2.61,US,2023-04-05 09:00:00
524,chimbote,-9.0853,-78.5783,25.53,81,97,2.04,PE,2023-04-05 09:00:00
525,chokwe,-24.5333,32.9833,25.96,73,32,5.33,MZ,2023-04-05 09:00:00
526,taybad,34.74,60.7756,17.86,49,3,3.02,IR,2023-04-05 09:00:00
527,honggang,46.4667,124.8667,10.33,14,15,1.31,CN,2023-04-05 09:00:00
528,samfya,-11.3649,29.5565,23.31,82,70,4.49,ZM,2023-04-05 09:00:00
529,krasnyy chikoy,50.3643,108.7512,1.72,55,100,7.89,RU,2023-04-05 09:00:00
530,midland,31.9974,-102.0779,15.36,11,0,9.69,US,2023-04-05 09:00:00
531,cam ranh,11.9214,109.1591,31.34,64,39,5.04,VN,2023-04-05 09:00:00
532,moss point,30.4116,-88.5345,22.77,96,47,4.68,US,2023-04-05 09:00:00
533,aksha,50.2814,113.2867,4.9,43,100,3.69,RU,2023-04-05 09:00:00
534,padang,-0.9492,100.3543,28.49,75,91,1.65,ID,2023-04-05 09:00:00
535,podgornoye,51.735,39.1496,12.3,74,33,3.57,RU,2023-04-05 09:00:00
536,dublin,37.7021,-121.9358,5.91,85,4,1.93,US,2023-04-05 09:00:00
537,altagracia de orituco,9.8601,-66.3814,21.98,87,55,1.95,VE,2023-04-05 09:00:00
538,aldan,58.6031,125.3894,-9.0,80,85,6.07,RU,2023-04-05 09:00:00
539,hailar,49.2,119.7,6.68,28,25,5.67,CN,2023-04-05 09:00:00
540,banyo,6.75,11.8167,28.68,52,100,1.21,CM,2023-04-05 09:00:00
541,villamartin,36.8598,-5.6449,18.65,41,13,2.92,ES,2023-04-05 09:00:00
542,ugoofaaru,5.6667,73.0,28.26,70,34,1.86,MV,2023-04-05 09:00:00
543,simpang,-1.2667,104.0833,30.64,65,99,1.23,ID,2023-04-05 09:00:00
544,khorixas,-20.3667,14.9667,32.09,38,55,4.71,NA,2023-04-05 09:00:00
545,noyabrsk,63.1994,75.4507,-1.52,93,100,7.75,RU,2023-04-05 09:00:00
546,bogorodskoye,56.55,37.8833,10.15,73,60,3.95,RU,2023-04-05 09:00:00
547,suzdal,56.4281,40.4414,11.43,71,39,4.16,RU,2023-04-05 09:00:00
548,kidal,18.4411,1.4078,32.44,6,22,3.23,ML,2023-04-05 09:00:00
549,paamiut,61.994,-49.6678,-1.41,72,71,1.54,GL,2023-04-05 09:00:00
550,ozinki,51.1786,49.6769,17.94,43,73,4.17,RU,2023-04-05 09:00:00
551,barra do garcas,-15.89,-52.2567,20.36,92,0,0.41,BR,2023-04-05 09:00:00
552,tougan,13.0667,-3.0667,33.77,11,72,1.27,BF,2023-04-05 09:00:00
553,tumut,-35.3,148.2167,21.7,55,57,1.55,AU,2023-04-05 09:00:00
554,ajdabiya,30.7554,20.2263,19.96,52,0,2.57,LY,2023-04-05 09:00:00
555,altay,47.8667,88.1167,5.56,41,5,0.83,CN,2023-04-05 09:00:00
556,tekirdag,40.978,27.5085,7.02,88,100,2.89,TR,2023-04-05 09:00:00
557,zhaozhou,45.6833,125.3167,10.25,12,100,2.95,CN,2023-04-05 09:00:00
558,sayyan,15.1718,44.3244,19.98,51,53,2.62,YE,2023-04-05 09:00:00
559,balaguer,41.7912,0.8109,11.49,76,0,3.32,ES,2023-04-05 09:00:00
560,nouadhibou,20.931,-17.0347,17.77,67,99,9.43,MR,2023-04-05 09:00:00
561,ust-maya,60.4167,134.5333,-3.24,82,100,4.63,RU,2023-04-05 09:00:00
562,badou,7.5833,0.6,29.84,72,69,1.94,TG,2023-04-05 09:00:00
563,irbit,57.6705,63.071,13.97,54,94,3.58,RU,2023-04-05 09:00:00
564,hornepayne,49.2138,-84.7705,-8.11,95,100,6.8,CA,2023-04-05 09:00:00
565,pacific grove,36.6177,-121.9166,8.02,78,61,3.77,US,2023-04-05 09:00:00
566,lucapa,-8.4192,20.7447,19.89,96,98,2.83,AO,2023-04-05 09:00:00
567,alofi,-19.0595,-169.9187,26.62,88,28,7.67,NU,2023-04-05 09:00:00
568,matagami,49.7502,-77.6328,-13.84,83,98,3.37,CA,2023-04-05 09:00:00
569,quatre cocos,-20.2078,57.7625,27.83,72,21,3.31,MU,2023-04-05 09:00:00
570,wewak,-3.5534,143.6268,28.79,75,88,2.85,PG,2023-04-05 09:00:00
571,kiunga,-6.1219,141.2906,27.4,82,93,1.36,PG,2023-04-05 09:00:00
572,shumskiy,54.8318,99.1328,-0.53,48,93,4.86,RU,2023-04-05 09:00:00
573,saurimo,-9.6608,20.3916,19.79,95,100,2.52,AO,2023-04-05 09:00:00
574,key west,24.5557,-81.7826,26.33,72,58,7.4,US,2023-04-05 09:00:00
575,vallenar,-28.5708,-70.7581,18.36,73,0,0.83,CL,2023-04-05 09:00:00
576,ulladulla,-35.35,150.4667,22.15,66,7,0.23,AU,2023-04-05 09:00:00
577,usinsk,65.9939,57.5281,-2.33,81,72,5.89,RU,2023-04-05 09:00:00
578,xique-xique,-10.8218,-42.7263,23.6,71,89,4.47,BR,2023-04-05 09:00:00
579,phillipsburg,40.6937,-75.1902,13.18,81,98,2.14,US,2023-04-05 09:00:00
580,sargodha,32.0836,72.6711,30.27,27,5,1.13,PK,2023-04-05 09:00:00
581,vestmannaeyjar,63.4427,-20.2734,6.69,82,100,2.72,IS,2023-04-05 09:00:00
582,charters towers,-20.1,146.2667,29.58,53,58,4.71,AU,2023-04-05 09:00:00
583,tabas,33.5959,56.9244,23.12,19,0,1.09,IR,2023-04-05 09:00:00
584,sinnamary,5.3833,-52.95,24.43,81,94,5.04,GF,2023-04-05 09:00:00
585,dingle,10.9995,122.6711,30.17,51,84,4.45,PH,2023-04-05 09:00:00
586,prieska,-29.6641,22.7474,26.14,28,1,4.85,ZA,2023-04-05 09:00:00
587,aktash,50.3,87.7333,-0.76,46,4,1.32,RU,2023-04-05 09:00:00
588,aripuana,-9.1667,-60.6333,21.98,99,100,0.83,BR,2023-04-05 09:00:00
589,jalingo,8.8833,11.3667,34.44,22,99,3.22,NG,2023-04-05 09:00:00
590,mogocha,53.7333,119.7667,0.18,60,99,1.91,RU,2023-04-05 09:00:00
591,kuantan,3.8077,103.326,29.31,83,40,2.21,MY,2023-04-05 09:00:00
592,acapulco,16.8634,-99.8901,26.08,80,34,2.27,MX,2023-04-05 09:00:00
593,valleyview,55.0667,-117.2859,-3.17,92,76,2.25,CA,2023-04-05 09:00:00
594,wawa,9.9022,4.4192,32.06,58,78,2.84,NG,2023-04-05 09:00:00
595,charlestown,-32.95,151.6667,21.05,77,6,3.6,AU,2023-04-05 09:00:00
